oris,fuel_gen,id_gen,status_gen,mover_gen,capacity_gen,generation_gen,year_online,fuel_cat_gen,name_plant,id_operator,lat,lon,state,fips_state,fips_county,region_nerc,subregion_egrid,fuel_cat_plant,capacity_plant,i_big,i_operating,fips,dist_plant_county,dist_plant_state
56673,WND,WEC,OP,WT,59.8,131907,2007,WIND,Whirlwind Energy Center,20404,34.105,-101.0986,TX,48,153,TRE,ERCT,WIND,59.8,1,1,48153,5.27061002130452,112.978282249221
58772,WND,GEN1,OP,WT,200,786086,2015,WIND,Longhorn Wind,17008,34.311111,-101.251111,TX,48,045,TRE,ERCT,WIND,200,1,1,48045,0.124477736018666,118.230995817862
59384,WND,1,OP,WT,200,825730,2015,WIND,South Plains Wind Phase I,17008,34.080556,-101.323611,TX,48,153,TRE,ERCT,WIND,200,1,1,48153,22.2488056390216,132.906069529368
60087,WND,SPII,OP,WT,300,1154432,2016,WIND,South Plains II,17008,34.196962,-101.381494,TX,48,153,TRE,ERCT,WIND,300,1,1,48153,12.7941561175326,133.267252607201
60210,WND,CPWF,OP,WT,50.4,197743,2017,WIND,Cotton Plains Wind Farm,17008,34.060333,-101.187628,TX,48,153,TRE,ERCT,WIND,50.4,1,1,48153,13.4927225331898,122.550345498931
60366,WND,OSWF,OP,WT,151.2,553064,2017,WIND,Old Settler Wind,17008,34.060333,-101.187628,TX,48,153,TRE,ERCT,WIND,151.2,1,1,48153,13.4927225331898,122.550345498931
