oris,fuel_gen,id_gen,status_gen,mover_gen,capacity_gen,generation_gen,year_online,fuel_cat_gen,name_plant,id_operator,lat,lon,state,fips_state,fips_county,region_nerc,subregion_egrid,fuel_cat_plant,capacity_plant,i_big,i_operating,fips,dist_plant_county,dist_plant_state
55599,LFG,1,OP,GT,5.3,25701,1999,BIOMASS,GRS CMS,4150,35.353269,-80.668024,NC,37,025,SERC,SRVC,BIOMASS,5.3,0,1,37025,2.39982815563715,36.5157233370204
57896,LFG,UNT1,OP,GT,4.8,30215.5,2012,BIOMASS,Concord Energy,5416,35.34598,-80.670385,NC,37,025,SERC,SRVC,BIOMASS,9.6,0,1,37025,1.97466856003472,35.7719249732495
57896,LFG,UNT2,OP,GT,4.8,30215.5,2012,BIOMASS,Concord Energy,5416,35.34598,-80.670385,NC,37,025,SERC,SRVC,BIOMASS,9.6,0,1,37025,1.97466856003472,35.7719249732495
59818,SUN,1,OP,PV,5.2,4770,2011,SOLAR,Concord Farm,4150,35.444235,-80.663641,NC,37,025,SERC,SRVC,SOLAR,5.2,0,1,37025,6.86567839992393,44.7680149632839
60312,SUN,1,OP,PV,4.9,8874,2015,SOLAR,"Howell Midland Farm, LLC",5416,35.225669,-80.543086,NC,37,025,SERC,SRVC,SOLAR,4.9,0,1,37025,1.95624250720426,36.4563291036882
60961,SUN,PV1,OP,PV,5,9,2018,SOLAR,Violet Solar,5416,35.401091,-80.4185,NC,37,025,SERC,SRVC,SOLAR,5,0,1,37025,4.43484514035311,57.1116552483901
61610,SUN,NC102,OP,PV,74.8,16810,2018,SOLAR,NC 102 Project LLC,19435,35.2925,-80.4975,NC,37,025,SERC,SRVC,SOLAR,74.8,1,1,37025,5.05723421461878,44.1186920958465
