oris,fuel_gen,id_gen,status_gen,mover_gen,capacity_gen,generation_gen,year_online,fuel_cat_gen,name_plant,id_operator,lat,lon,state,fips_state,fips_county,region_nerc,subregion_egrid,fuel_cat_plant,capacity_plant,i_big,i_operating,fips,dist_plant_county,dist_plant_state
2741,WAT,1,OP,HY,9,37232,1954,HYDRO,Bear Creek Dam,5416,35.242677,-83.072007,NC,37,099,SERC,SRVC,HYDRO,9,0,1,37099,9.86602899520122,24.4961393367716
2743,WAT,1,OP,HY,6.4,27610,1952,HYDRO,Cedar Cliff,5416,35.2531,-83.0983,NC,37,099,SERC,SRVC,HYDRO,6.4,0,1,37099,11.2638722996409,26.3193876377425
2749,WAT,1,OP,HY,10.8,48111,1955,HYDRO,Tennessee Creek,5416,35.2139,-83.0028,NC,37,099,SERC,SRVC,HYDRO,10.8,0,1,37099,3.1875401842004,19.5723553444906
2750,WAT,1,OP,HY,21.6,96019,1941,HYDRO,Thorpe,5416,35.233988,-83.125398,NC,37,099,SERC,SRVC,HYDRO,21.6,0,1,37099,8.38443170914261,25.0680661327006
2751,WAT,1,OP,HY,3,7077,1950,HYDRO,Tuckasegee,5416,35.247011,-83.128111,NC,37,099,SERC,SRVC,HYDRO,3,0,1,37099,8.4724506643721,26.5171511682056
