oris,fuel_gen,id_gen,status_gen,mover_gen,capacity_gen,generation_gen,year_online,fuel_cat_gen,name_plant,id_operator,lat,lon,state,fips_state,fips_county,region_nerc,subregion_egrid,fuel_cat_plant,capacity_plant,i_big,i_operating,fips,dist_plant_county,dist_plant_state
1597,DFO,UN1,OP,IC,2.7,501,1969,OIL,Oak Bluffs Diesel Generating Facility,54913,41.425786,-70.608273,MA,25,007,NPCC,NEWE,OIL,8.1,0,1,25007,7.73577807293347,10.7340673693344
1597,DFO,UN2,OP,IC,2.7,501,1969,OIL,Oak Bluffs Diesel Generating Facility,54913,41.425786,-70.608273,MA,25,007,NPCC,NEWE,OIL,8.1,0,1,25007,7.73577807293347,10.7340673693344
1597,DFO,UN3,OP,IC,2.7,501,1972,OIL,Oak Bluffs Diesel Generating Facility,54913,41.425786,-70.608273,MA,25,007,NPCC,NEWE,OIL,8.1,0,1,25007,7.73577807293347,10.7340673693344
6049,DFO,UN1,OP,IC,2.7,357.5,1975,OIL,West Tisbury Generating Facility,54913,41.392486,-70.620089,MA,25,007,NPCC,NEWE,OIL,5.4,0,1,25007,10.3908142243092,10.3908142243092
6049,DFO,UN2,OP,IC,2.7,357.5,1975,OIL,West Tisbury Generating Facility,54913,41.392486,-70.620089,MA,25,007,NPCC,NEWE,OIL,5.4,0,1,25007,10.3908142243092,10.3908142243092
59079,SUN,KAT1,OP,PV,1,1226,2014,SOLAR,Katama Farm,54913,41.361111,-70.516944,MA,25,007,NPCC,NEWE,SOLAR,1,0,1,25007,6.92825723800419,6.92825723800419
59080,SUN,NUN1,OP,PV,1,1413,2014,SOLAR,Nunnepog,54913,41.358889,-70.505,MA,25,007,NPCC,NEWE,SOLAR,1,0,1,25007,6.75244284384792,6.75244284384792
59573,SUN,TIS1,OP,PV,1.1,1121,2014,SOLAR,Tisbury Landfill Solar,54913,41.444722,-70.613056,MA,25,007,NPCC,NEWE,SOLAR,1.1,0,1,25007,5.68250562349005,10.5034449198225
