oris,fuel_gen,id_gen,status_gen,mover_gen,capacity_gen,generation_gen,year_online,fuel_cat_gen,name_plant,id_operator,lat,lon,state,fips_state,fips_county,region_nerc,subregion_egrid,fuel_cat_plant,capacity_plant,i_big,i_operating,fips,dist_plant_county,dist_plant_state
809,WAT,1,OP,HY,30.8,163089.333,1978,HYDRO,American Falls,9191,42.7778,-112.8764,ID,16,077,WECC,NWPP,HYDRO,92.4,1,1,16077,9.47179442012354,86.4849103743828
809,WAT,2,OP,HY,30.8,163089.333,1978,HYDRO,American Falls,9191,42.7778,-112.8764,ID,16,077,WECC,NWPP,HYDRO,92.4,1,1,16077,9.47179442012354,86.4849103743828
809,WAT,3,OP,HY,30.8,163089.333,1978,HYDRO,American Falls,9191,42.7778,-112.8764,ID,16,077,WECC,NWPP,HYDRO,92.4,1,1,16077,9.47179442012354,86.4849103743828
50274,WH,GEN1,OP,ST,15.9,63972,1986,OTHER,Simplot Leasing Don Plant,9191,42.908412,-112.52944,ID,16,005,WECC,NWPP,OTHF,15.9,0,1,16005,0.811338430011978,100.808051355725
57760,WND,PCWPS,OP,WT,22.5,57341,2011,WIND,Power County Wind Park South,14354,42.703333,-112.757778,ID,16,077,WECC,NWPP,WIND,22.5,0,1,16077,18.4004099976929,78.1317677063859
57761,WND,PCWPN,OP,WT,22.5,65358,2011,WIND,Power County Wind Park North,14354,42.738889,-112.748611,ID,16,077,WECC,NWPP,WIND,22.5,0,1,16077,14.8879392987408,82.0756190550328
57766,WND,RLWF,OP,WT,79.2,346182,2011,WIND,Rockland Wind Farm,9191,42.674722,-112.901944,ID,16,077,WECC,NWPP,WIND,79.2,1,1,16077,12.6965183371909,75.053766046724
60011,SUN,IPAF,OP,PV,20,42606,2017,SOLAR,American Falls Solar,9191,42.824,-112.752,ID,16,077,WECC,NWPP,SOLAR,20,0,1,16077,6.8446576838224,91.5301890092984
60012,SUN,IPAF2,OP,PV,20,43733,2017,SOLAR,American Falls Solar II,9191,42.824,-112.752,ID,16,077,WECC,NWPP,SOLAR,20,0,1,16077,6.8446576838224,91.5301890092984
