oris,fuel_gen,id_gen,status_gen,mover_gen,capacity_gen,generation_gen,year_online,fuel_cat_gen,name_plant,id_operator,lat,lon,state,fips_state,fips_county,region_nerc,subregion_egrid,fuel_cat_plant,capacity_plant,i_big,i_operating,fips,dist_plant_county,dist_plant_state
59521,SUN,LTLRV,OP,PV,5,8472,2015,SOLAR,Little River PV 1,5416,35.538889,-79.804167,NC,37,151,SERC,SRVC,SOLAR,5,0,1,37151,3.08431891345935,81.3107169473785
59576,SUN,GEN1,OP,PV,5,9412,2015,SOLAR,Millikan Farm,5416,35.81771,-79.771085,NC,37,151,SERC,SRVC,SOLAR,5,0,1,37151,10.1317345252563,80.3731141906217
61525,SUN,GEN1,OP,PV,5,8650,2017,SOLAR,ABD Farms,3046,35.728738,-79.748273,NC,37,151,SERC,SRVC,SOLAR,5,0,1,37151,18.2954172273427,90.2297959637878
61881,SUN,GEN1,OP,PV,2,0,2018,SOLAR,Morning View,15671,35.546315,-79.742842,NC,37,151,SERC,SRVC,SOLAR,2,0,1,37151,3.81074220480963,82.125617886668
61883,SUN,GEN1,OP,PV,1.3,0,2018,SOLAR,Hopewell Friends,15671,35.62845,-79.8727,NC,37,151,SERC,SRVC,SOLAR,1.3,0,1,37151,13.1064049432983,91.2581943958527
