oris,fuel_gen,id_gen,status_gen,mover_gen,capacity_gen,generation_gen,year_online,fuel_cat_gen,name_plant,id_operator,lat,lon,state,fips_state,fips_county,region_nerc,subregion_egrid,fuel_cat_plant,capacity_plant,i_big,i_operating,fips,dist_plant_county,dist_plant_state
61325,SUN,PGRB3,OP,PV,6.8,14026,2017,SOLAR,Hampton Solar I,17539,32.879,-81.133,SC,45,049,SERC,SRVC,SOLAR,6.8,0,1,45049,10.2620003620909,27.4207402053132
61490,SUN,EST1,OP,PV,20,21536,2017,SOLAR,Estill Solar,17539,32.763843,-81.242151,SC,45,049,SERC,SRVC,SOLAR,20,0,1,45049,7.50443502931214,15.3532661459206
61498,SUN,HAM2,OP,PV,20,28768,2017,SOLAR,Hampton Solar 2,17539,32.881,-81.136,SC,45,049,SERC,SRVC,SOLAR,20,0,1,45049,9.92859627277018,27.1867541204671
61529,SUN,GEN1,OP,PV,10.2,15920,2017,SOLAR,Estill Solar II,17539,32.727842,-81.253453,SC,45,005,SERC,SRVC,SOLAR,10.2,0,1,45005,9.15495420226849,14.3278393928263
61748,SUN,PRGE1,OP,PV,10.2,18842,2017,SOLAR,"Southern Current One, LLC",17539,32.947262,-81.215942,SC,45,005,SERC,SRVC,SOLAR,10.2,0,1,45005,0.495143381589629,22.9008321882954
