oris,fuel_gen,id_gen,status_gen,mover_gen,capacity_gen,generation_gen,year_online,fuel_cat_gen,name_plant,id_operator,lat,lon,state,fips_state,fips_county,region_nerc,subregion_egrid,fuel_cat_plant,capacity_plant,i_big,i_operating,fips,dist_plant_county,dist_plant_state
10819,NG,GEN1,OP,CT,23,142879,1990,GAS,Ada Cogeneration LP,4254,42.962672,-85.494071,MI,26,081,RFC,RFCM,GAS,33.1,0,1,26081,14.8592141316926,129.296518398373
10819,NG,GEN2,OP,CA,10.1,40800,1990,GAS,Ada Cogeneration LP,4254,42.962672,-85.494071,MI,26,081,RFC,RFCM,GAS,33.1,0,1,26081,14.8592141316926,129.296518398373
50433,WAT,ADA1,OP,HY,1.4,5842,1984,HYDRO,Ada Dam,4254,42.950642,-85.485944,MI,26,081,RFC,RFCM,HYDRO,1.4,0,1,26081,14.2006322501393,129.849054355522
50436,WAT,CAS1,OP,HY,1.6,8104,1986,HYDRO,Cascade Dam,4254,42.909408,-85.49888,MI,26,081,RFC,RFCM,HYDRO,1.6,0,1,26081,15.2789997038693,127.716712294403
50860,MSW,GEN1,OP,ST,18,102288,1989,BIOMASS,Kent County Waste to Energy Facility,4254,42.949575,-85.693209,MI,26,081,RFC,RFCM,BIOMASS,18,0,1,26081,7.41695732633083,112.986345311504
56851,LFG,1,OP,IC,1.6,10615.5,2009,BIOMASS,Bryon Center,4254,42.7814,-85.6728,MI,26,081,RFC,RFCM,BIOMASS,3.2,0,1,26081,1.47343349671235,113.001043509598
56851,LFG,2,OP,IC,1.6,10615.5,2009,BIOMASS,Bryon Center,4254,42.7814,-85.6728,MI,26,081,RFC,RFCM,BIOMASS,3.2,0,1,26081,1.47343349671235,113.001043509598
58254,NG,CT02R,OP,GT,3.6,27.123,2016,GAS,Chatham,11268,42.934444,-85.3475,MI,26,081,RFC,RFCM,GAS,7.3,0,1,26081,2.9147482350539,130.44624341261
58254,NG,CTOIS,OP,GT,3.7,27.877,2013,GAS,Chatham,11268,42.934444,-85.3475,MI,26,081,RFC,RFCM,GAS,7.3,0,1,26081,2.9147482350539,130.44624341261
