oris,fuel_gen,id_gen,status_gen,mover_gen,capacity_gen,generation_gen,year_online,fuel_cat_gen,name_plant,id_operator,lat,lon,state,fips_state,fips_county,region_nerc,subregion_egrid,fuel_cat_plant,capacity_plant,i_big,i_operating,fips,dist_plant_county,dist_plant_state
56661,WND,1,OP,WT,283.2,714176,2008,WIND,Pattern Gulf Wind,3278,27.0011,-97.5994,TX,48,261,TRE,ERCT,WIND,283.2,1,1,48261,27.426641680793,27.426641680793
56795,WND,1,OP,WT,201.6,576536,2009,WIND,Penascal Wind Power LLC,3278,27.0702,-97.5077,TX,48,261,TRE,ERCT,WIND,201.6,1,1,48261,18.3762864424726,18.3762864424726
57095,WND,1,OP,WT,201,522695,2010,WIND,Penascal II Wind Project LLC,3278,27.1197,-97.5499,TX,48,261,TRE,ERCT,WIND,201,1,1,48261,16.668932840713,22.8343286869133
57927,WND,1,OP,WT,188,628961,2014,WIND,Baffin Wind,3278,27.223056,-97.789167,TX,48,261,TRE,ERCT,WIND,188,1,1,48261,4.36575578562754,47.4868720471699
59063,WND,WT1,OP,WT,201,53607,2018,WIND,Stella Wind Farm,3278,26.941667,-97.6425,TX,48,261,TRE,ERCT,WIND,201,1,1,48261,32.2238521709553,32.2238521709553
