oris,fuel_gen,id_gen,status_gen,mover_gen,capacity_gen,generation_gen,year_online,fuel_cat_gen,name_plant,id_operator,lat,lon,state,fips_state,fips_county,region_nerc,subregion_egrid,fuel_cat_plant,capacity_plant,i_big,i_operating,fips,dist_plant_county,dist_plant_state
1777,WAT,1,OP,HY,2.8,11603,1953,HYDRO,Hemlock Falls,20847,46.1311,-88.225,MI,26,071,RFC,RFCW,HYDRO,2.8,0,1,26071,8.26831271742528,18.697104803945
1780,WAT,1,OP,HY,4.8,18048.5,1953,HYDRO,Michigamme Falls,659,45.9553,-88.1958,MI,26,071,RFC,RFCW,HYDRO,9.6,0,1,26071,0.239451047697829,0.239451047697829
1780,WAT,2,OP,HY,4.8,18048.5,1953,HYDRO,Michigamme Falls,659,45.9553,-88.1958,MI,26,071,RFC,RFCW,HYDRO,9.6,0,1,26071,0.239451047697829,0.239451047697829
1781,WAT,1,OP,HY,6,28610.5,1943,HYDRO,Peavy Falls,659,45.990781,-88.210514,MI,26,071,RFC,RFCW,HYDRO,12,0,1,26071,4.11574173462026,4.11574173462026
1781,WAT,2,OP,HY,6,28610.5,1943,HYDRO,Peavy Falls,659,45.990781,-88.210514,MI,26,071,RFC,RFCW,HYDRO,12,0,1,26071,4.11574173462026,4.11574173462026
1785,WAT,1,OP,HY,1.8,7220,1949,HYDRO,Way Dam,20847,46.1592,-88.2353,MI,26,071,RFC,RFCW,HYDRO,1.8,0,1,26071,9.08045451578074,21.731917738609
1821,WAT,1,OP,HY,0.3,1876.8,1914,HYDRO,Crystal Falls,4604,46.106278,-88.334531,MI,26,071,RFC,RFCW,HYDRO,1,0,1,26071,13.2128211816367,13.2128211816367
1821,WAT,2,OP,HY,0.3,1876.8,1924,HYDRO,Crystal Falls,4604,46.106278,-88.334531,MI,26,071,RFC,RFCW,HYDRO,1,0,1,26071,13.2128211816367,13.2128211816367
1821,WAT,3,OP,HY,0.4,2502.4,1954,HYDRO,Crystal Falls,4604,46.106278,-88.334531,MI,26,071,RFC,RFCW,HYDRO,1,0,1,26071,13.2128211816367,13.2128211816367
